{
  "mg road": {"lat": 12.9750, "lng": 77.6060, "name": "MG Road"},
  "mahatma gandhi road": {"lat": 12.9750, "lng": 77.6060, "name": "MG Road"},
  "indiranagar": {"lat": 12.9784, "lng": 77.6408, "name": "Indiranagar"},
  "koramangala": {"lat": 12.9352, "lng": 77.6245, "name": "Koramangala"},
  "whitefield": {"lat": 12.9698, "lng": 77.7500, "name": "Whitefield"},
  "electronic city": {"lat": 12.8456, "lng": 77.6603, "name": "Electronic City"},
  "airport": {"lat": 13.1986, "lng": 77.7066, "name": "Kempegowda Airport"},
  "kempegowda airport": {"lat": 13.1986, "lng": 77.7066, "name": "Kempegowda Airport"},
  "majestic": {"lat": 12.9767, "lng": 77.5713, "name": "Majestic"},
  "city railway station": {"lat": 12.9773, "lng": 77.5661, "name": "Bangalore City Railway Station"},
  "bangalore central": {"lat": 12.9773, "lng": 77.5661, "name": "Bangalore City Railway Station"},
  "jayanagar": {"lat": 12.9250, "lng": 77.5838, "name": "Jayanagar"},
  "malleshwaram": {"lat": 13.0035, "lng": 77.5690, "name": "Malleshwaram"},
  "hebbal": {"lat": 13.0358, "lng": 77.5970, "name": "Hebbal"},
  "marathahalli": {"lat": 12.9591, "lng": 77.6974, "name": "Marathahalli"},
  "banashankari": {"lat": 12.9255, "lng": 77.5468, "name": "Banashankari"},
  "hsr layout": {"lat": 12.9121, "lng": 77.6446, "name": "HSR Layout"},
  "btm layout": {"lat": 12.9166, "lng": 77.6101, "name": "BTM Layout"},
  "yeshwanthpur": {"lat": 13.0284, "lng": 77.5405, "name": "Yeshwanthpur"},
  "cubbon park": {"lat": 12.9763, "lng": 77.5929, "name": "Cubbon Park"}
}
